[{"icao":"EEEI","lat":59.2602996826,"lon":24.2084999084,"name":"Amari Air Base"},{"icao":"EEKA","lat":58.9907989502,"lon":22.8306999207,"name":"Kardla Airport"},{"icao":"EEKE","lat":58.2299003601,"lon":22.5095005035,"name":"Kuressaare Airport"},{"icao":"EEKU","lat":58.1483001709,"lon":24.0025005341,"name":"Kihnu Airfield"},{"icao":"EEPU","lat":58.4189987183,"lon":24.4727993011,"name":"Parnu Airport"},{"icao":"EERU","lat":57.7839012146,"lon":23.2660999298,"name":"Ruhnu Airfield"},{"icao":"EETN","lat":59.4132995605,"lon":24.8327999115,"name":"Tallinn Airport"},{"icao":"EETU","lat":58.3074989319,"lon":26.6903991699,"name":"Tartu Airport"},{"icao":"EGAA","lat":54.6575012207,"lon":-6.2158298492,"name":"Belfast International Airport"},{"icao":"EGAB","lat":54.3988990784,"lon":-7.6516699791,"name":"St Angelo Airport"},{"icao":"EGAC","lat":54.6180992126,"lon":-5.8724999428,"name":"George Best Belfast City Airport"},{"icao":"EGAD","lat":54.5811004639,"lon":-5.6919398308,"name":"Newtownards Airport"},{"icao":"EGAE","lat":55.0428009033,"lon":-7.1611099243,"name":"City of Derry Airport"},{"icao":"EGBB","lat":52.4538993835,"lon":-1.7480299473,"name":"Birmingham International Airport"},{"icao":"EGBD","lat":52.8596992493,"lon":-1.6174999476,"name":"Derby Airfield"},{"icao":"EGBE","lat":52.3697013855,"lon":-1.4797199965,"name":"Coventry Airport"},{"icao":"EGBF","lat":52.2308485669,"lon":-0.4624557495,"name":"Bedford Aerodrome"},{"icao":"EGBG","lat":52.60779953,"lon":-1.0319399834,"name":"Leicester Airport"},{"icao":"EGBJ","lat":51.8941993713,"lon":-2.1672201157,"name":"Gloucestershire Airport"},{"icao":"EGBK","lat":52.3053016663,"lon":-0.7930560112,"name":"Sywell Aerodrome"},{"icao":"EGBM","lat":52.8147010803,"lon":-1.7611099482,"name":"Tatenhill Airfield"},{"icao":"EGBN","lat":52.9199981689,"lon":-1.0791699886,"name":"Nottingham Airport"},{"icao":"EGBO","lat":52.5175018311,"lon":-2.2594399452,"name":"Wolverhampton Halfpenny Green Airport"},{"icao":"EGBP","lat":51.6680984497,"lon":-2.0569400787,"name":"Kemble Airport"},{"icao":"EGBS","lat":52.2416992188,"lon":-2.8811099529,"name":"Shobdon Aerodrome"},{"icao":"EGBW","lat":52.192199707,"lon":-1.6144399643,"name":"Wellesbourne Mountford Airport"},{"icao":"EGCB","lat":53.471698761,"lon":-2.3897199631,"name":"City Airport Manchester"},{"icao":"EGCC","lat":53.3536987305,"lon":-2.2749500275,"name":"Manchester Airport"},{"icao":"EGCF","lat":53.5597000122,"lon":-0.8583329916,"name":"Sandtoft Airfield"},{"icao":"EGCJ","lat":53.7844009399,"lon":-1.2172199488,"name":"Sherburn-In-Elmet Airfield"},{"icao":"EGCK","lat":53.1041984558,"lon":-4.340280056,"name":"Caernarfon Airport"},{"icao":"EGCL","lat":52.739200592,"lon":-0.0297219995,"name":"Fenland Airfield"},{"icao":"EGCN","lat":53.4805378105,"lon":-1.0106563568,"name":"Robin Hood Doncaster Sheffield Airport"},{"icao":"EGCV","lat":52.8339004517,"lon":-2.7716701031,"name":"Sleap Airport"},{"icao":"EGCW","lat":52.6286010742,"lon":-3.1533300877,"name":"Welshpool Airport"},{"icao":"EGEC","lat":55.4371986389,"lon":-5.6863899231,"name":"Campbeltown Airport"},{"icao":"EGED","lat":59.1906013489,"lon":-2.7722198963,"name":"Eday Airport"},{"icao":"EGEF","lat":59.5358009338,"lon":-1.6280599833,"name":"Fair Isle Airport"},{"icao":"EGEL","lat":56.6018981934,"lon":-6.6177802086,"name":"Coll Airport"},{"icao":"EGEN","lat":59.3675003052,"lon":-2.4344398975,"name":"North Ronaldsay Airport"},{"icao":"EGEO","lat":56.4635009766,"lon":-5.3996701241,"name":"Oban Airport"},{"icao":"EGEP","lat":59.3516998291,"lon":-2.9002799988,"name":"Papa Westray Airport"},{"icao":"EGER","lat":59.1553001404,"lon":-2.6413900852,"name":"Stronsay Airport"},{"icao":"EGES","lat":59.2503013611,"lon":-2.5766699314,"name":"Sanday Airport"},{"icao":"EGET","lat":60.192199707,"lon":-1.2436100245,"name":"Lerwick / Tingwall Airport"},{"icao":"EGEW","lat":59.3502998352,"lon":-2.9500000477,"name":"Westray Airport"},{"icao":"EGEY","lat":56.0574989319,"lon":-6.243060112,"name":"Colonsay Airstrip"},{"icao":"EGFA","lat":52.1152992249,"lon":-4.5569400787,"name":"Aberporth Airport"},{"icao":"EGFE","lat":51.8330993652,"lon":-4.9611101151,"name":"Haverfordwest Airport"},{"icao":"EGFF","lat":51.3967018127,"lon":-3.3433299065,"name":"Cardiff International Airport"},{"icao":"EGFH","lat":51.6053009033,"lon":-4.0678300858,"name":"Swansea Airport"},{"icao":"EGFP","lat":51.7139015198,"lon":-4.3122200966,"name":"Pembrey Airport"},{"icao":"EGGD","lat":51.3827018738,"lon":-2.7190899849,"name":"Bristol International Airport"},{"icao":"EGGP","lat":53.3335990906,"lon":-2.8497200012,"name":"Liverpool John Lennon Airport"},{"icao":"EGGW","lat":51.8746986389,"lon":-0.3683330119,"name":"London Luton Airport"},{"icao":"EGHA","lat":50.9672012329,"lon":-2.1536099911,"name":"Compton Abbas Aerodrome"},{"icao":"EGHC","lat":50.1027984619,"lon":-5.6705598831,"name":"Land's End Airport"},{"icao":"EGHE","lat":49.9132995605,"lon":-6.2916698456,"name":"St. Mary's Airport"},{"icao":"EGHF","lat":50.814201355,"lon":-1.20333004,"name":"RNAS Lee-On-Solent"},{"icao":"EGHG","lat":50.9399986267,"lon":-2.6586101055,"name":"Yeovil/Westland Aerodrome"},{"icao":"EGHH","lat":50.7799987793,"lon":-1.8424999714,"name":"Bournemouth Airport"},{"icao":"EGHI","lat":50.9502983093,"lon":-1.3567999601,"name":"Southampton Airport"},{"icao":"EGHO","lat":51.2106018066,"lon":-1.6000000238,"name":"Thruxton Aerodrome"},{"icao":"EGHQ","lat":50.4406013489,"lon":-4.9954099655,"name":"Newquay Cornwall Airport"},{"icao":"EGHR","lat":50.8594017029,"lon":-0.7591670156,"name":"Chichester/Goodwood Airport"},{"icao":"EGJA","lat":49.7061004639,"lon":-2.2147200108,"name":"Alderney Airport"},{"icao":"EGJB","lat":49.4350013733,"lon":-2.6019699574,"name":"Guernsey Airport"},{"icao":"EGJJ","lat":49.207901001,"lon":-2.1955099106,"name":"Jersey Airport"},{"icao":"EGKA","lat":50.8356018066,"lon":-0.2972219884,"name":"Shoreham Airport"},{"icao":"EGKB","lat":51.3307991028,"lon":0.0324999988,"name":"London Biggin Hill Airport"},{"icao":"EGKH","lat":51.1568984985,"lon":0.6416670084,"name":"Lashenden (Headcorn) Airfield"},{"icao":"EGKK","lat":51.1481018066,"lon":-0.1902779937,"name":"London Gatwick Airport"},{"icao":"EGKR","lat":51.2136001587,"lon":-0.1386110038,"name":"Redhill Aerodrome"},{"icao":"EGLC","lat":51.5052986145,"lon":0.0552779995,"name":"London City Airport"},{"icao":"EGLD","lat":51.5882987976,"lon":-0.5130559802,"name":"Denham Aerodrome"},{"icao":"EGLF","lat":51.2757987976,"lon":-0.7763329744,"name":"Farnborough Airport"},{"icao":"EGLJ","lat":51.6761016846,"lon":-1.080829978,"name":"Chalgrove Airport"},{"icao":"EGLK","lat":51.3238983154,"lon":-0.8475000262,"name":"Blackbushe Airport"},{"icao":"EGLL","lat":51.4706001282,"lon":-0.4619410038,"name":"London Heathrow Airport"},{"icao":"EGLM","lat":51.5008010864,"lon":-0.774443984,"name":"White Waltham Airfield"},{"icao":"EGMC","lat":51.5713996887,"lon":0.695555985,"name":"Southend Airport"},{"icao":"EGMD","lat":50.9561004639,"lon":0.9391670227,"name":"Lydd Airport"},{"icao":"EGNC","lat":54.9375,"lon":-2.8091700077,"name":"Carlisle Airport"},{"icao":"EGNE","lat":53.2806015015,"lon":-0.9513890147,"name":"Retford Gamston Airport"},{"icao":"EGNF","lat":53.3168983459,"lon":-1.1963900328,"name":"Netherthorpe Airfield"},{"icao":"EGNH","lat":53.7717018127,"lon":-3.0286099911,"name":"Blackpool International Airport"},{"icao":"EGNJ","lat":53.5744018555,"lon":-0.3508329988,"name":"Humberside Airport"},{"icao":"EGNL","lat":54.1311988831,"lon":-3.2636699677,"name":"Barrow Walney Island Airport"},{"icao":"EGNM","lat":53.8658981323,"lon":-1.6605700254,"name":"Leeds Bradford Airport"},{"icao":"EGNO","lat":53.745098114,"lon":-2.8830599785,"name":"Warton Airport"},{"icao":"EGNR","lat":53.1781005859,"lon":-2.9777801037,"name":"Hawarden Airport"},{"icao":"EGNS","lat":54.0833015442,"lon":-4.6238899231,"name":"Isle of Man Airport"},{"icao":"EGNT","lat":55.0374984741,"lon":-1.6916699409,"name":"Newcastle Airport"},{"icao":"EGNV","lat":54.5092010498,"lon":-1.4294099808,"name":"Durham Tees Valley Airport"},{"icao":"EGNW","lat":53.3166999817,"lon":-0.349721998,"name":"Wickenby Aerodrome"},{"icao":"EGNX","lat":52.8311004639,"lon":-1.3280600309,"name":"East Midlands Airport"},{"icao":"EGPA","lat":58.9578018188,"lon":-2.9049999714,"name":"Kirkwall Airport"},{"icao":"EGPB","lat":59.8788986206,"lon":-1.2955600023,"name":"Sumburgh Airport"},{"icao":"EGPC","lat":58.4589004517,"lon":-3.0930600166,"name":"Wick Airport"},{"icao":"EGPD","lat":57.2019004822,"lon":-2.1977798939,"name":"Aberdeen Dyce Airport"},{"icao":"EGPE","lat":57.5424995422,"lon":-4.0475001335,"name":"Inverness Airport"},{"icao":"EGPF","lat":55.8718986511,"lon":-4.4330601692,"name":"Glasgow International Airport"},{"icao":"EGPG","lat":55.9747009277,"lon":-3.9755599499,"name":"Cumbernauld Airport"},{"icao":"EGPH","lat":55.9500007629,"lon":-3.3724999428,"name":"Edinburgh Airport"},{"icao":"EGPI","lat":55.6819000244,"lon":-6.2566699982,"name":"Islay Airport"},{"icao":"EGPK","lat":55.5093994141,"lon":-4.5866699219,"name":"Glasgow Prestwick Airport"},{"icao":"EGPL","lat":57.481098175,"lon":-7.3627800941,"name":"Benbecula Airport"},{"icao":"EGPM","lat":60.432800293,"lon":-1.296110034,"name":"Scatsta Airport"},{"icao":"EGPN","lat":56.4524993896,"lon":-3.0258300304,"name":"Dundee Airport"},{"icao":"EGPO","lat":58.2155990601,"lon":-6.3311100006,"name":"Stornoway Airport"},{"icao":"EGPR","lat":57.0228004456,"lon":-7.4430599213,"name":"Barra Airport"},{"icao":"EGPT","lat":56.439201355,"lon":-3.3722200394,"name":"Perth/Scone Airport"},{"icao":"EGPU","lat":56.4991989136,"lon":-6.8691701889,"name":"Tiree Airport"},{"icao":"EGSC","lat":52.2050018311,"lon":0.174999997,"name":"Cambridge Airport"},{"icao":"EGSF","lat":52.4681015015,"lon":-0.2511110008,"name":"Peterborough Business Airport"},{"icao":"EGSG","lat":51.6525001526,"lon":0.1558330059,"name":"Stapleford Aerodrome"},{"icao":"EGSH","lat":52.6758003235,"lon":1.2827800512,"name":"Norwich International Airport"},{"icao":"EGSL","lat":51.8950004578,"lon":0.4491670132,"name":"Andrewsfield Airport"},{"icao":"EGSR","lat":51.9143981934,"lon":0.6825000048,"name":"Earls Colne Airfield"},{"icao":"EGSS","lat":51.8849983215,"lon":0.2349999994,"name":"London Stansted Airport"},{"icao":"EGSU","lat":52.090801239,"lon":0.1319440007,"name":"Duxford Airport"},{"icao":"EGSV","lat":52.4975013733,"lon":1.0519399643,"name":"Old Buckenham Airport"},{"icao":"EGTB","lat":51.6116981506,"lon":-0.8083329797,"name":"Wycombe Air Park"},{"icao":"EGTC","lat":52.0722007751,"lon":-0.6166669726,"name":"Cranfield Airport"},{"icao":"EGTE","lat":50.7344017029,"lon":-3.4138898849,"name":"Exeter International Airport"},{"icao":"EGTF","lat":51.3480987549,"lon":-0.5588889718,"name":"Fairoaks Airport"},{"icao":"EGTH","lat":52.0834007263,"lon":-0.3166669905,"name":"Old Warden Airfield"},{"icao":"EGTK","lat":51.8368988037,"lon":-1.3200000525,"name":"Oxford (Kidlington) Airport"},{"icao":"EGTO","lat":51.3518981934,"lon":0.5033329725,"name":"Rochester Airport"},{"icao":"EGTR","lat":51.6557998657,"lon":-0.3258329928,"name":"Elstree Airfield"},{"icao":"EGTU","lat":50.8600006104,"lon":-3.2347199917,"name":"Dunkeswell Airport"},{"icao":"EGWU","lat":51.5530014038,"lon":-0.418166995,"name":"RAF Northolt"},{"icao":"EVAD","lat":57.0985984802,"lon":24.2658004761,"name":"Adazi Airfield"},{"icao":"EVCA","lat":57.3244438171,"lon":25.3236103058,"name":"Cesis Airport"},{"icao":"EVGA","lat":56.778301239,"lon":24.8539009094,"name":"Lielvarde Airport"},{"icao":"EVJA","lat":56.941667,"lon":23.223333,"name":"Jurmala Airport"},{"icao":"EVLA","lat":56.5175018311,"lon":21.0969009399,"name":"Liepaja International Airport"},{"icao":"EVPA","lat":56.8149986267,"lon":24.5277996063,"name":"Ikshkile Airport"},{"icao":"EVRA","lat":56.9235992432,"lon":23.9710998535,"name":"Riga International Airport"},{"icao":"EVRS","lat":56.9911003113,"lon":24.0750007629,"name":"Spilve Aerodrome"},{"icao":"EVVA","lat":57.35779953,"lon":21.5442008972,"name":"Ventspils International Airport"},{"icao":"EYKA","lat":54.9639015198,"lon":24.0848007202,"name":"Kaunas International Airport"},{"icao":"EYPA","lat":55.9732017517,"lon":21.0939006805,"name":"Palanga International Airport"},{"icao":"EYSA","lat":55.893901825,"lon":23.3950004578,"name":"Siauliai International Airport"},{"icao":"EYVI","lat":54.6341018677,"lon":25.2858009338,"name":"Vilnius International Airport"}]